[
  { "Municipality": "Agoncillo", "lat": 13.935, "lng": 120.928, "Volcano_Risk": "High", "Seismic_Landslide_Risk": "High", "Rain_Landslide_Risk": "Moderate", "Liquefaction_Risk": "Moderate", "Storm_Surge_Risk": "Low", "Tsunami_Risk": "Low" },
  { "Municipality": "Alitagtag", "lat": 13.865, "lng": 120.995, "Volcano_Risk": "High", "Seismic_Landslide_Risk": "High", "Rain_Landslide_Risk": "Moderate", "Liquefaction_Risk": "Moderate", "Storm_Surge_Risk": "Low", "Tsunami_Risk": "Low" },
  { "Municipality": "Balayan", "lat": 13.938, "lng": 120.732, "Volcano_Risk": "Low", "Seismic_Landslide_Risk": "Moderate", "Rain_Landslide_Risk": "Low", "Liquefaction_Risk": "Low", "Storm_Surge_Risk": "High", "Tsunami_Risk": "Moderate" },
  { "Municipality": "Batangas City", "lat": 13.757, "lng": 121.058, "Volcano_Risk": "Low", "Seismic_Landslide_Risk": "Moderate", "Rain_Landslide_Risk": "Low", "Liquefaction_Risk": "High", "Storm_Surge_Risk": "High", "Tsunami_Risk": "Moderate" },
  { "Municipality": "Bauan", "lat": 13.791, "lng": 121.008, "Volcano_Risk": "Moderate", "Seismic_Landslide_Risk": "Moderate", "Rain_Landslide_Risk": "Low", "Liquefaction_Risk": "High", "Storm_Surge_Risk": "High", "Tsunami_Risk": "Moderate" },
  { "Municipality": "Calaca", "lat": 13.958, "lng": 120.813, "Volcano_Risk": "Low", "Seismic_Landslide_Risk": "Moderate", "Rain_Landslide_Risk": "Low", "Liquefaction_Risk": "Low", "Storm_Surge_Risk": "High", "Tsunami_Risk": "Moderate" },
  { "Municipality": "Cuenca", "lat": 13.902, "lng": 121.052, "Volcano_Risk": "Moderate", "Seismic_Landslide_Risk": "High", "Rain_Landslide_Risk": "High", "Liquefaction_Risk": "Low", "Storm_Surge_Risk": "Low", "Tsunami_Risk": "Low" },
  { "Municipality": "Lemery", "lat": 13.882, "lng": 120.916, "Volcano_Risk": "Low", "Seismic_Landslide_Risk": "Moderate", "Rain_Landslide_Risk": "Low", "Liquefaction_Risk": "Low", "Storm_Surge_Risk": "High", "Tsunami_Risk": "Moderate" },
  { "Municipality": "Lipa City", "lat": 13.941, "lng": 121.163, "Volcano_Risk": "Low", "Seismic_Landslide_Risk": "Moderate", "Rain_Landslide_Risk": "Moderate", "Liquefaction_Risk": "Low", "Storm_Surge_Risk": "Low", "Tsunami_Risk": "Low" },
  { "Municipality": "Mabini", "lat": 13.753, "lng": 120.942, "Volcano_Risk": "Moderate", "Seismic_Landslide_Risk": "Moderate", "Rain_Landslide_Risk": "Low", "Liquefaction_Risk": "Moderate", "Storm_Surge_Risk": "High", "Tsunami_Risk": "Moderate" },
  { "Municipality": "Nasugbu", "lat": 14.069, "lng": 120.631, "Volcano_Risk": "Low", "Seismic_Landslide_Risk": "Moderate", "Rain_Landslide_Risk": "Low", "Liquefaction_Risk": "Low", "Storm_Surge_Risk": "High", "Tsunami_Risk": "High" },
  { "Municipality": "San Nicolas", "lat": 13.928, "lng": 120.952, "Volcano_Risk": "High", "Seismic_Landslide_Risk": "High", "Rain_Landslide_Risk": "Moderate", "Liquefaction_Risk": "Moderate", "Storm_Surge_Risk": "Low", "Tsunami_Risk": "Low" },
  { "Municipality": "San Pascual", "lat": 13.795, "lng": 121.022, "Volcano_Risk": "Low", "Seismic_Landslide_Risk": "Moderate", "Rain_Landslide_Risk": "Low", "Liquefaction_Risk": "Moderate", "Storm_Surge_Risk": "High", "Tsunami_Risk": "Moderate" },
  { "Municipality": "Sto. Tomas City", "lat": 14.139, "lng": 121.141, "Volcano_Risk": "Low", "Seismic_Landslide_Risk": "Moderate", "Rain_Landslide_Risk": "High", "Liquefaction_Risk": "Low", "Storm_Surge_Risk": "Low", "Tsunami_Risk": "Low" },
  { "Municipality": "Tanauan City", "lat": 14.086, "lng": 121.150, "Volcano_Risk": "Moderate", "Seismic_Landslide_Risk": "Moderate", "Rain_Landslide_Risk": "Moderate", "Liquefaction_Risk": "Low", "Storm_Surge_Risk": "Low", "Tsunami_Risk": "Low" },
  { "Municipality": "Taal", "lat": 13.881, "lng": 120.923, "Volcano_Risk": "Low", "Seismic_Landslide_Risk": "Moderate", "Rain_Landslide_Risk": "Low", "Liquefaction_Risk": "Low", "Storm_Surge_Risk": "High", "Tsunami_Risk": "Moderate" },
  { "Municipality": "Talisay", "lat": 14.092, "lng": 121.022, "Volcano_Risk": "High", "Seismic_Landslide_Risk": "High", "Rain_Landslide_Risk": "Moderate", "Liquefaction_Risk": "Moderate", "Storm_Surge_Risk": "Low", "Tsunami_Risk": "Low" }
]
